time_s,time_us,time_steady,iTOW,fTOW,week,gpsFix,flags,ecefX,ecefY,ecefZ,pAcc,ecefVX,ecefVY,ecefVZ,sAcc,pDOP,reserved1,numSV,seq,srcSystem,srcComponent,time_gregorian,time_s_from_launch,mins_from_launch,lat,lon,h,time_steady_from_launch,mins_steady_from_launch,baro_altitude
1656909106,158000,2450976,102725000,-297478,2217,0,92,269233738,226324013,530301488,22063312,0,0,0,17646,9999,0,0,93,11,0,2022-07-04T07:31:46,-259,-4.314033333333333,56.622634773027386,40.05117370523658,140.74321997696632,-259997,-4.333283333333333,96.07768539663651
1656909107,126000,2451943,102726000,-293470,2217,0,92,269233738,226324013,530301488,22090342,0,0,0,17654,9999,0,0,120,11,0,2022-07-04T07:31:47,-258,-4.2979,56.622634773027386,40.05117370523658,140.74321997696632,-259030,-4.317166666666666,96.0117866683045
1656909108,143000,2452961,102727000,-289462,2217,0,92,269233738,226324013,530301488,22117382,0,0,0,17661,9999,0,0,148,11,0,2022-07-04T07:31:48,-257,-4.280950000000001,56.622634773027386,40.05117370523658,140.74321997696632,-258012,-4.3002,96.37123156077831
1656909109,161000,2453978,102728000,-285457,2217,0,92,269233738,226324013,530301488,22144432,0,0,0,17668,9999,0,0,176,11,0,2022-07-04T07:31:49,-256,-4.263983333333333,56.622634773027386,40.05117370523658,140.74321997696632,-256995,-4.28325,96.76412010151985
1656909110,179000,2454996,102729000,-281453,2217,0,92,269233738,226324013,530301488,22171492,0,0,0,17676,9999,0,0,205,11,0,2022-07-04T07:31:50,-255,-4.247016666666666,56.622634773027386,40.05117370523658,140.74321997696632,-255977,-4.266283333333333,96.85577659729593
1656909111,134000,2455952,102730000,-277446,2217,0,92,269233738,226324013,530301488,22198562,0,0,0,17683,9999,0,0,229,11,0,2022-07-04T07:31:51,-254,-4.2311000000000005,56.622634773027386,40.05117370523658,140.74321997696632,-255021,-4.25035,96.89176824369174
1656909112,152000,2456969,102731000,-273436,2217,0,92,269233738,226324013,530301488,22225646,0,0,0,17690,9999,0,0,2,11,0,2022-07-04T07:31:52,-253,-4.214133333333334,56.622634773027386,40.05117370523658,140.74321997696632,-254004,-4.2334,96.59904061986649
1656909113,119000,2457937,102732000,-269428,2217,0,92,269233738,226324013,530301488,22252738,0,0,0,17698,9999,0,0,30,11,0,2022-07-04T07:31:53,-252,-4.198016666666667,56.622634773027386,40.05117370523658,140.74321997696632,-253036,-4.217266666666666,96.31949811143464
1656909118,155000,2462972,102737000,-249366,2217,0,92,269233738,226324013,530301488,22388356,0,0,0,17734,9999,0,0,174,11,0,2022-07-04T07:31:58,-247,-4.114083333333333,56.622634773027386,40.05117370523658,140.74321997696632,-248001,-4.13335,94.23463361721596
1656909119,122000,2463940,102738000,-245343,2217,0,92,269233738,226324013,530301488,22415510,0,0,0,17741,9999,0,0,202,11,0,2022-07-04T07:31:59,-246,-4.097966666666666,56.622634773027386,40.05117370523658,140.74321997696632,-247033,-4.117216666666667,92.7689089159618
1656909120,194000,2465011,102739000,-240976,2217,3,93,269234265,226322879,530302771,6947,-24,-8,84,272,215,0,4,232,11,0,2022-07-04T07:32:00,-245,-4.0801,56.622722628304686,40.05097705979074,149.66201675709218,-245962,-4.099366666666667,94.83586646010485
1656909121,158000,2465976,102740000,-236950,2217,3,93,269234224,226322909,530302714,6296,-3,-21,73,338,215,0,4,4,11,0,2022-07-04T07:32:01,-244,-4.064033333333334,56.62272071814776,40.05098509833068,149.1195694033498,-244997,-4.083283333333333,96.41633719195255
1656909122,127000,2466944,102741000,-232921,2217,3,93,269234195,226322752,530302620,5477,-1,-10,43,269,215,0,4,32,11,0,2022-07-04T07:32:02,-243,-4.047883333333333,56.62272531472948,40.05096856093121,147.65669468028267,-244029,-4.06715,96.35053037059046
1656909123,199000,2468016,102742000,-228896,2217,3,93,269234118,226322752,530302418,4337,0,6,-9,216,215,0,4,62,11,0,2022-07-04T07:32:03,-242,-4.030016666666667,56.62271975504034,40.05097663217025,145.64559544105808,-242957,-4.049283333333333,96.13046340060764
1656909124,163000,2468981,102743000,-224882,2217,3,93,269234070,226322760,530302480,3719,-21,-4,-18,142,215,0,4,90,11,0,2022-07-04T07:32:04,-241,-4.0139499999999995,56.622725187465385,40.05098266115887,145.98951713023155,-241992,-4.0332,96.51327555548285
1656909125,182000,2469999,102744000,-220875,2217,3,93,269234084,226322754,530302454,3314,-15,-1,-32,135,215,0,4,119,11,0,2022-07-04T07:32:05,-240,-3.996966666666667,56.62272338881989,40.05098044548622,145.81011707517212,-240974,-4.016233333333333,96.95749689132009
1656909126,150000,2470967,102745000,-216865,2217,3,93,269234032,226322742,530302308,3101,2,20,-55,225,215,0,4,147,11,0,2022-07-04T07:32:06,-239,-3.9808333333333334,56.62271973975943,40.05098439984709,144.3294554607243,-240006,-4.0001,97.06484166164775
1656909127,169000,2471986,102746000,-212857,2217,3,93,269234017,226322752,530302312,2945,-29,-12,-18,211,215,0,4,176,11,0,2022-07-04T07:32:07,-238,-3.96385,56.622720315887015,40.05098721912426,144.3350898977231,-238987,-3.9831166666666666,97.18376095344529
1656909128,191000,2473008,102747000,-208854,2217,3,93,269234008,226322733,530302305,2804,-51,-19,7,204,215,0,4,205,11,0,2022-07-04T07:32:08,-237,-3.9468166666666664,56.62272140351743,40.0509857932981,144.17147328217837,-237965,-3.966083333333333,97.30548045801982
1656909129,156000,2473973,102748000,-204856,2217,3,93,269234006,226322727,530302255,2689,12,10,-47,223,215,0,4,233,11,0,2022-07-04T07:32:09,-236,-3.9307333333333334,56.62271933761278,40.050985254766566,143.72427749867725,-237000,-3.95,96.66577255710563
1656909130,174000,2474991,102749000,-200858,2217,3,93,269234088,226322964,530302141,2604,80,338,-177,215,215,0,4,6,11,0,2022-07-04T07:32:10,-235,-3.9137666666666666,56.62269756210574,40.05100621228568,143.95661474269042,-235982,-3.9330333333333334,96.04979648957222
1656909134,147000,2478965,102753000,-184883,2217,3,93,269234301,226323426,530302022,2566,36,-3,-20,208,215,0,4,120,11,0,2022-07-04T07:32:14,-231,-3.84755,56.62265716249946,40.05104149465955,145.49538454353572,-232008,-3.8668,96.69223474171582
1656909135,166000,2479984,102754000,-180894,2217,3,93,269234344,226323410,530302222,2568,0,3,113,226,215,0,4,149,11,0,2022-07-04T07:32:15,-230,-3.830566666666667,56.622665347186704,40.051034992219336,147.28995831382355,-230989,-3.849816666666667,96.73135699443922
1656909136,191000,2481008,102755000,-176900,2217,3,93,269234351,226323491,530302252,2587,44,117,46,235,215,0,4,178,11,0,2022-07-04T07:32:16,-229,-3.813483333333333,56.62266251890584,40.051044358793995,147.85670089276869,-229965,-3.83275,96.72868902837864
1656909137,158000,2481975,102756000,-172907,2217,3,93,269234365,226323546,530302300,2619,22,21,66,195,215,0,4,206,11,0,2022-07-04T07:32:17,-228,-3.797366666666667,56.62266143270066,40.05104974953897,148.51119266613807,-228998,-3.8166333333333333,96.59006270841527
1656909138,177000,2482995,102757000,-168914,2217,3,93,269234407,226323634,530302295,2667,66,83,6,291,215,0,4,235,11,0,2022-07-04T07:32:18,-227,-3.7803833333333334,56.62265452835504,40.05105632023157,148.9578363847197,-227978,-3.7996333333333334,96.30407512749566
1656909139,146000,2483963,102758000,-164917,2217,3,93,269234321,226323753,530302237,2709,-76,140,1,338,215,0,4,7,11,0,2022-07-04T07:32:19,-226,-3.7642333333333338,56.622650857293365,40.051080173593895,148.53259792928918,-227010,-3.7834999999999996,96.00577545166016
1656909140,114000,2484932,102759000,-160923,2217,0,92,269234245,226323892,530302238,2979,-76,140,1,618,9999,0,0,35,11,0,2022-07-04T07:32:20,-225,-3.7481,56.62264856199008,40.05110547264466,148.7129620114683,-226041,-3.76735,96.17548247196216
1656909141,133000,2485950,102760000,-156928,2217,0,92,269234169,226324032,530302239,3591,-76,140,1,807,9999,0,0,64,11,0,2022-07-04T07:32:21,-224,-3.7311166666666664,56.62264621842737,40.05113089638602,148.89686654026542,-225023,-3.750383333333333,97.13514647688851
1656909142,150000,2486968,102761000,-152933,2217,0,92,269234093,226324172,530302239,4584,-76,140,1,959,9999,0,0,93,11,0,2022-07-04T07:32:22,-223,-3.7141666666666664,56.622643825454794,40.051156320122764,149.07242080758394,-224005,-3.7334166666666664,97.36824168356813
1656909143,118000,2487935,102762000,-148938,2217,0,92,269234017,226324312,530302240,5908,-76,140,1,1090,9999,0,0,121,11,0,2022-07-04T07:32:23,-222,-3.6980333333333335,56.62264148188198,40.0511817438549,149.25632612011538,-223038,-3.7173000000000003,97.27745280860302
1656909144,136000,2488953,102763000,-144943,2217,0,92,269233941,226324452,530302241,7500,-76,140,1,1207,9999,0,0,150,11,0,2022-07-04T07:32:24,-221,-3.6810666666666667,56.622639138304095,40.05120716758241,149.44023182461115,-222020,-3.7003333333333335,97.18197442563351
1656909149,125000,2493942,102768000,-124938,2217,0,92,269233232,226322898,530302555,5978,-226,19,35,782,9999,0,0,37,11,0,2022-07-04T07:32:29,-216,-3.597916666666667,56.622770337792055,40.05108770960035,143.57532702958144,-217031,-3.6171833333333336,97.02368637045936
1656909150,144000,2494962,102769000,-120940,2217,0,92,269233006,226322917,530302590,6700,-226,19,35,931,9999,0,0,66,11,0,2022-07-04T07:32:30,-215,-3.5809333333333333,56.62278412329238,40.051113768539054,142.98312351100898,-216011,-3.6001833333333333,97.273403165214
1656909151,163000,2495980,102770000,-116942,2217,0,92,269232781,226322936,530302625,7741,-226,19,35,1059,9999,0,0,95,11,0,2022-07-04T07:32:31,-214,-3.5639499999999997,56.62279785138637,40.051139722679636,142.39513198521274,-214993,-3.5832166666666665,96.59741917666832
1656909152,131000,2496948,102771000,-112944,2217,0,92,269232555,226322955,530302660,9082,-226,19,35,1173,9999,0,0,123,11,0,2022-07-04T07:32:32,-213,-3.547816666666667,56.62281163688085,40.05116578166587,141.8029300001336,-214025,-3.5670833333333336,96.85947148717783
1656909153,149000,2497966,102772000,-108946,2217,0,92,269232329,226322973,530302694,10691,-226,19,35,1277,9999,0,0,152,11,0,2022-07-04T07:32:33,-212,-3.53085,56.622825421222394,40.05119171598021,141.19883806896274,-213007,-3.550116666666667,97.1350595575277
1656909154,118000,2498935,102773000,-104948,2217,0,92,269232103,226322992,530302729,12530,-226,19,35,1373,9999,0,0,179,11,0,2022-07-04T07:32:34,-211,-3.5147,56.62283920671108,40.05121777501409,140.60663762139274,-212038,-3.5339666666666667,96.87545626462976
1656909155,136000,2499953,102774000,-100950,2217,0,92,269231878,226323011,530302764,14570,-226,19,35,1463,9999,0,0,207,11,0,2022-07-04T07:32:35,-210,-3.4977333333333336,56.622852934793436,40.051243729249435,140.01864915552457,-211020,-3.5170000000000003,96.1626326430729
1656909156,155000,2500972,102775000,-96952,2217,0,92,269231652,226323030,530302799,16789,-226,19,35,1548,9999,0,0,235,11,0,2022-07-04T07:32:36,-209,-3.48075,56.62286672027628,40.05126978833085,139.42645024669164,-210001,-3.5000166666666668,96.09539603242953
1656909157,123000,2501940,102776000,-92954,2217,0,92,269231426,226323049,530302833,19168,-226,19,35,1628,9999,0,0,6,11,0,2022-07-04T07:32:37,-208,-3.4646166666666667,56.62288045635158,40.051295847436094,138.82590143062262,-209033,-3.483883333333333,96.16993226594164
1656909158,142000,2502959,102777000,-88965,2217,0,92,269231200,226323068,530302868,21693,0,0,0,1704,9999,0,0,34,11,0,2022-07-04T07:32:38,-207,-3.4476333333333335,56.62289424182857,40.05132190656515,138.23370405798192,-208014,-3.4669000000000003,96.56794571107582
1656909159,162000,2503979,102778000,-84981,2217,0,92,269231200,226323068,530302868,24353,0,0,0,1843,9999,0,0,62,11,0,2022-07-04T07:32:39,-206,-3.430633333333333,56.62289424182857,40.05132190656515,138.23370405798192,-206994,-3.4499,96.98288930454208
1656909160,131000,2504948,102779000,-81004,2217,0,92,269231200,226323068,530302868,27140,0,0,0,1916,9999,0,0,89,11,0,2022-07-04T07:32:40,-205,-3.4144833333333335,56.62289424182857,40.05132190656515,138.23370405798192,-206025,-3.4337500000000003,96.97354101829795
1656909161,149000,2505966,102780000,-77025,2217,0,92,269231200,226323068,530302868,30046,0,0,0,1985,9999,0,0,117,11,0,2022-07-04T07:32:41,-204,-3.3975166666666667,56.62289424182857,40.05132190656515,138.23370405798192,-205007,-3.4167833333333335,96.91820888286425
1656909162,117000,2506934,102781000,-73051,2217,0,92,269231200,226323068,530302868,33066,0,0,0,2053,9999,0,0,144,11,0,2022-07-04T07:32:42,-203,-3.3813833333333334,56.62289424182857,40.05132190656515,138.23370405798192,-204039,-3.4006499999999997,96.69257749076954
1656909163,136000,2507953,102782000,-69077,2217,0,92,269231200,226323068,530302868,36193,0,0,0,2118,9999,0,0,172,11,0,2022-07-04T07:32:43,-202,-3.3644000000000003,56.62289424182857,40.05132190656515,138.23370405798192,-203020,-3.383666666666667,96.44756263769011
1656909164,308000,2509125,102783000,-64480,2217,3,92,269206599,226322096,530290008,10092,-372,-54,-280,469,215,0,4,203,11,0,2022-07-04T07:32:44,-201,-3.344866666666667,56.62371798594642,40.05377958049047,-76.19428224875018,-201848,-3.3641333333333336,96.1844853115344
1656909165,175000,2509992,102784000,-60497,2217,0,92,269206227,226322043,530289729,10119,-372,-54,-280,479,9999,0,0,229,11,0,2022-07-04T07:32:45,-200,-3.3304166666666664,56.62372811385251,40.053811969693044,-80.27824763173261,-200981,-3.349683333333333,96.25124452068214
1656909166,132000,2510949,102785000,-56514,2217,0,92,269205856,226321989,530289449,12535,-372,-54,-280,548,9999,0,0,253,11,0,2022-07-04T07:32:46,-199,-3.3144666666666667,56.62373818321364,40.05384412942192,-84.36989216083128,-200024,-3.3337333333333334,96.48046763667125
1656909167,152000,2511969,102786000,-52531,2217,0,92,269205484,226321936,530289169,12840,-372,-54,-280,610,9999,0,0,26,11,0,2022-07-04T07:32:47,-198,-3.2974666666666668,56.623748261723584,40.053876518741724,-88.46220667601737,-199004,-3.316733333333333,96.89684097205306
1656909168,122000,2512939,102787000,-48548,2217,0,92,269205113,226321882,530288889,13355,-372,-54,-280,666,9999,0,0,54,11,0,2022-07-04T07:32:48,-197,-3.2813,56.62375833109384,40.05390867858739,-92.55384958993037,-198034,-3.3005666666666666,97.31162241450728
1656909169,140000,2513957,102788000,-44573,2217,0,92,269204741,226321828,530288609,14112,-372,-54,-280,717,9999,0,0,83,11,0,2022-07-04T07:32:49,-196,-3.2643333333333335,56.62376845787251,40.05394094332599,-96.64970263840054,-197016,-3.2836,97.29543974945635
1656909170,161000,2514978,102789000,-40590,2217,0,92,269204370,226321775,530288329,15125,-372,-54,-280,765,9999,0,0,112,11,0,2022-07-04T07:32:50,-195,-3.247316666666667,56.62377847899219,40.05397322798691,-100.73780377153527,-195995,-3.2665833333333336,97.10237397949012
1656909171,129000,2515946,102790000,-36609,2217,0,92,269203998,226321721,530288049,16394,-372,-54,-280,811,9999,0,0,140,11,0,2022-07-04T07:32:51,-194,-3.2311833333333335,56.62378860578002,40.054005492842634,-104.83365519560806,-195027,-3.25045,96.55246237678271
1656909172,147000,2516964,102791000,-32626,2217,0,92,269203627,226321668,530287769,17909,-372,-54,-280,854,9999,0,0,169,11,0,2022-07-04T07:32:52,-193,-3.2142166666666667,56.62379862690868,40.054037777620465,-108.921754707249,-194009,-3.233483333333333,96.17378997802734
1656909173,166000,2517983,102792000,-28642,2217,0,92,269203255,226321614,530287489,19651,-372,-54,-280,894,9999,0,0,198,11,0,2022-07-04T07:32:53,-192,-3.1972333333333336,56.62380875370567,40.054070042593324,-113.0176045090239,-192990,-3.2165000000000004,96.23154653555211
1656909174,135000,2518952,102793000,-24657,2217,0,92,269202883,226321561,530287209,21601,-372,-54,-280,933,9999,0,0,226,11,0,2022-07-04T07:32:54,-191,-3.1810833333333335,56.623818832247245,40.05410243232351,-117.10991332831325,-192021,-3.20035,96.42413464374722
1656909175,153000,2519970,102794000,-20675,2217,0,92,269202512,226321507,530286929,23742,0,0,0,971,9999,0,0,255,11,0,2022-07-04T07:32:55,-190,-3.1641166666666667,56.62382890164948,40.05413459257804,-121.20155057851836,-191003,-3.183383333333333,96.97838085796613
1656909176,120000,2520937,102795000,-16698,2217,0,92,269202512,226321507,530286929,26055,0,0,0,1769,9999,0,0,27,11,0,2022-07-04T07:32:56,-189,-3.148,56.62382890164948,40.05413459257804,-121.20155057851836,-190036,-3.167266666666667,97.50764164246469
1656909177,138000,2521955,102796000,-12733,2217,0,92,269202512,226321507,530286929,28525,0,0,0,1838,9999,0,0,56,11,0,2022-07-04T07:32:57,-188,-3.1310333333333333,56.62382890164948,40.05413459257804,-121.20155057851836,-189018,-3.1503,97.45113365760963
1656909178,107000,2522924,102797000,-8767,2217,0,92,269202512,226321507,530286929,31141,0,0,0,1905,9999,0,0,84,11,0,2022-07-04T07:32:58,-187,-3.1148833333333332,56.62382890164948,40.05413459257804,-121.20155057851836,-188049,-3.13415,97.27841736267206
1656909179,127000,2523943,102798000,-4802,2217,0,92,269202512,226321507,530286929,33891,0,0,0,1970,9999,0,0,113,11,0,2022-07-04T07:32:59,-186,-3.0978833333333333,56.62382890164948,40.05413459257804,-121.20155057851836,-187030,-3.117166666666667,96.74048354402728
1656909180,149000,2524966,102799000,-836,2217,0,92,269202512,226321507,530286929,36767,0,0,0,2032,9999,0,0,142,11,0,2022-07-04T07:33:00,-185,-3.08085,56.62382890164948,40.05413459257804,-121.20155057851836,-186007,-3.1001166666666666,96.31859110999173
1656909181,121000,2525938,102800000,3130,2217,0,92,269202512,226321507,530286929,39760,0,0,0,2093,9999,0,0,170,11,0,2022-07-04T07:33:01,-184,-3.06465,56.62382890164948,40.05413459257804,-121.20155057851836,-185035,-3.0839166666666666,96.21475531760227
1656909182,143000,2526960,102801000,7101,2217,0,92,269202512,226321507,530286929,42864,0,0,0,2152,9999,0,0,199,11,0,2022-07-04T07:33:02,-183,-3.047616666666667,56.62382890164948,40.05413459257804,-121.20155057851836,-184013,-3.0668833333333336,96.08078992378498
1656909183,114000,2527931,102802000,11070,2217,0,92,269202512,226321507,530286929,46073,0,0,0,2209,9999,0,0,227,11,0,2022-07-04T07:33:03,-182,-3.031433333333333,56.62382890164948,40.05413459257804,-121.20155057851836,-183042,-3.0507,96.61480057212218
1656909184,132000,2528949,102803000,15037,2217,0,92,269202512,226321507,530286929,49383,0,0,0,2265,9999,0,0,0,11,0,2022-07-04T07:33:04,-181,-3.0144666666666664,56.62382890164948,40.05413459257804,-121.20155057851836,-182024,-3.033733333333333,96.84200210612552
1656909185,150000,2529967,102804000,19002,2217,0,92,269202512,226321507,530286929,52789,0,0,0,2319,9999,0,0,29,11,0,2022-07-04T07:33:05,-180,-2.9975,56.62382890164948,40.05413459257804,-121.20155057851836,-181006,-3.016766666666667,97.01663731706252
1656909186,118000,2530935,102805000,22970,2217,0,92,269202512,226321507,530286929,56288,0,0,0,2373,9999,0,0,57,11,0,2022-07-04T07:33:06,-179,-2.9813666666666667,56.62382890164948,40.05413459257804,-121.20155057851836,-180038,-3.0006333333333335,97.05393962475138
1656909187,239000,2532056,102806000,26139,2217,3,92,269235047,226322002,530303676,10449,418,-244,240,477,214,0,4,88,11,0,2022-07-04T07:33:07,-178,-2.962683333333333,56.622764768899444,40.05078573153708,157.40795262385438,-178917,-2.98195,97.09713785503982
1656909188,154000,2532970,102807000,30107,2217,3,92,269235167,226322068,530303989,10280,267,-19,275,495,214,0,4,115,11,0,2022-07-04T07:33:08,-177,-2.9474333333333336,56.622770159339694,40.05078138297343,160.7607023732332,-178003,-2.9667166666666662,96.48658493680449
1656909189,122000,2533939,102808000,34084,2217,3,93,269234800,226322153,530303994,8180,47,-29,276,343,214,0,4,143,11,0,2022-07-04T07:33:09,-176,-2.9313,56.622787371855445,40.05083045138075,159.55783014438728,-177034,-2.9505666666666666,96.21300620088657
1656909190,141000,2534957,102809000,38057,2217,3,93,269234666,226322206,530303962,6647,67,72,184,265,214,0,4,172,11,0,2022-07-04T07:33:10,-175,-2.9143166666666667,56.62279092551048,40.05085110627446,158.9139235009948,-176016,-2.9335999999999998,96.6268409105995
1656909191,159000,2535976,102810000,42030,2217,3,93,269234498,226322308,530303728,5604,43,90,107,242,214,0,4,201,11,0,2022-07-04T07:33:11,-174,-2.8973500000000003,56.622784086706325,40.050881435190746,156.61346147205862,-174997,-2.916616666666667,97.40771322672914
1656909192,177000,2536994,102811000,45999,2217,3,93,269234329,226322274,530303490,4987,-40,-61,90,275,214,0,4,230,11,0,2022-07-04T07:33:12,-173,-2.8803833333333335,56.62278367024829,40.05089491030236,153.7939419660226,-173979,-2.8996500000000003,96.97604804902818
1656909193,145000,2537962,102812000,49964,2217,3,93,269234187,226322207,530303327,4548,-64,-75,26,265,214,0,4,2,11,0,2022-07-04T07:33:13,-172,-2.8642499999999997,56.62278700162938,40.05090144028665,151.59760507236768,-173011,-2.8835166666666665,96.73177138786187
1656909198,134000,2542951,102817000,69817,2217,0,92,269234103,226321790,530303331,4363,3,-178,59,804,9999,0,0,145,11,0,2022-07-04T07:33:18,-167,-2.7811000000000003,56.62281214315904,40.050858247025744,149.80107217361217,-168022,-2.8003666666666667,96.49809545817767
1656909199,152000,2543968,102818000,73789,2217,0,92,269234105,226321612,530303390,5134,3,-178,59,960,9999,0,0,174,11,0,2022-07-04T07:33:19,-166,-2.7641333333333336,56.62282353247191,40.05083584146527,149.67206005938212,-167005,-2.7834166666666667,97.04677915236586
1656909200,119000,2544936,102819000,77760,2217,0,92,269234108,226321434,530303449,6270,3,-178,59,1095,9999,0,0,202,11,0,2022-07-04T07:33:20,-165,-2.7480166666666666,56.62283486437755,40.05081333106919,149.54725973282117,-166037,-2.7672833333333333,97.35779431561784
1656909201,137000,2545954,102820000,81732,2217,0,92,269234111,226321256,530303507,7722,3,-178,59,1215,9999,0,0,231,11,0,2022-07-04T07:33:21,-164,-2.73105,56.622846146875006,40.05079082065876,149.41410928089542,-165019,-2.750316666666667,97.04649530848178
1656909202,155000,2546971,102821000,85696,2217,3,93,269233948,226322006,530303729,5207,-69,-24,125,283,214,0,4,4,11,0,2022-07-04T07:33:22,-163,-2.7140833333333334,56.622830280811186,40.05090142867819,153.23654271394432,-164002,-2.733366666666667,96.16891999242567
1656909203,123000,2547940,102822000,89665,2217,3,93,269234129,226322238,530304178,4779,12,5,212,344,214,0,4,32,11,0,2022-07-04T07:33:23,-162,-2.69795,56.62283087842322,40.05091138549248,158.5695138402851,-163033,-2.7172166666666664,94.35783203872649
1656909208,161000,2552978,102827000,109535,2217,3,93,269234191,226322494,530304280,3717,3,80,102,212,214,0,4,176,11,0,2022-07-04T07:33:28,-157,-2.613983333333333,56.62282000558757,40.0509368087151,160.58862602891838,-157995,-2.63325,96.55254559103213
1656909209,179000,2553996,102828000,113514,2217,3,93,269234131,226322458,530304090,3626,4,-33,50,304,214,0,4,204,11,0,2022-07-04T07:33:29,-156,-2.5970166666666668,56.62281580009006,40.05093860894166,158.6218835439736,-156977,-2.6162833333333335,95.9987643191689
1656909210,147000,2554964,102829000,117485,2217,3,93,269234158,226322574,530304124,3555,10,57,35,216,214,0,4,231,11,0,2022-07-04T07:33:30,-155,-2.5808833333333334,56.622810332459466,40.05095024347934,159.4301532262911,-156009,-2.6001499999999997,96.30447258741336
1656909211,166000,2555982,102830000,121461,2217,3,93,269234181,226322685,530304084,3502,-4,138,22,296,214,0,4,3,11,0,2022-07-04T07:33:31,-154,-2.5639,56.62280167977945,40.050961673817234,159.585928450667,-154991,-2.5831833333333334,96.59381866455078
1656909212,184000,2557001,102831000,125445,2217,3,93,269234089,226322559,530303939,3455,-63,-57,61,335,214,0,4,31,11,0,2022-07-04T07:33:32,-153,-2.5469333333333335,56.62280587727221,40.05095560571152,157.54160374625843,-153972,-2.5662000000000003,96.59381866455078
1656909213,152000,2557969,102832000,129428,2217,3,93,269234000,226322526,530303754,3385,0,-4,16,270,214,0,4,58,11,0,2022-07-04T07:33:33,-152,-2.5308,56.62280343872779,40.05096081984801,155.5051090328469,-153004,-2.5500666666666665,96.66129291102571
1656909214,171000,2558987,102833000,133405,2217,3,93,269233972,226322595,530303704,3295,-8,73,11,196,214,0,4,86,11,0,2022-07-04T07:33:34,-151,-2.5138166666666666,56.62279924625067,40.050972358855,155.2139233545181,-151986,-2.5330999999999997,96.90356302081413
1656909215,192000,2560009,102834000,137383,2217,3,93,269233948,226322621,530303622,3233,8,7,5,210,214,0,4,114,11,0,2022-07-04T07:33:35,-150,-2.4968,56.62279531814689,40.05097811665767,154.52013983161677,-150964,-2.5160666666666667,97.06963530281452
1656909216,157000,2560974,102835000,141364,2217,3,93,269233882,226322590,530303519,3183,-47,11,30,182,214,0,4,141,11,0,2022-07-04T07:33:36,-149,-2.4807166666666665,56.622795513985395,40.05098116930016,153.27233847086714,-149999,-2.4999833333333332,96.93601589387058
1656909217,175000,2561992,102836000,145348,2217,3,93,269233862,226322603,530303320,3160,31,25,-69,326,214,0,4,169,11,0,2022-07-04T07:33:37,-148,-2.4637499999999997,56.62278620323377,40.05098488677335,151.57235138208878,-148981,-2.4830166666666664,96.79505780236288
1656909218,144000,2562960,102837000,149327,2217,3,93,269233888,226322591,530303415,3181,-27,-50,-3,306,214,0,4,196,11,0,2022-07-04T07:33:38,-147,-2.4476,56.622789983233204,40.05098066506756,152.432676459229,-148013,-2.4668833333333335,96.66088453058394
1656909219,162000,2563978,102838000,153304,2217,3,93,269233977,226322677,530303426,3165,70,57,-63,283,214,0,4,224,11,0,2022-07-04T07:33:39,-146,-2.430633333333333,56.62278126790772,40.05098205979989,153.20377684236885,-146995,-2.4499166666666667,96.51992643907624
1656909220,180000,2564997,102839000,157284,2217,3,93,269233942,226322668,530303541,3165,-122,4,88,208,214,0,4,253,11,0,2022-07-04T07:33:40,-145,-2.4136666666666664,56.62278939284454,40.0509846062862,153.98485000182438,-145976,-2.432933333333333,96.37896834756853
1656909221,202000,2566018,102840000,161270,2217,3,93,269233860,226322760,530303451,3155,-91,121,10,209,214,0,4,26,11,0,2022-07-04T07:33:41,-144,-2.3966333333333334,56.62278521411474,40.051004673647455,153.2136521391507,-144955,-2.415916666666667,96.23745639322584
1656909222,154000,2566971,102841000,165258,2217,3,93,269233804,226322803,530303290,3126,1,9,-9,330,214,0,4,50,11,0,2022-07-04T07:33:42,-143,-2.3807666666666667,56.62277839962778,40.05101590556289,151.7855873511519,-144002,-2.4000333333333335,96.10563703849564
1656909223,172000,2567989,102842000,169241,2217,3,93,269233790,226322914,530303150,3078,6,70,-39,352,214,0,4,79,11,0,2022-07-04T07:33:43,-142,-2.3638,56.622766930394555,40.05103121428213,150.95048133883478,-142984,-2.3830666666666667,96.08978271484375
1656909224,141000,2568957,102843000,173222,2217,0,92,269233796,226322984,530303111,3296,6,70,-39,628,9999,0,0,107,11,0,2022-07-04T07:33:44,-141,-2.3476500000000002,56.622761281387795,40.051039314046996,150.89787575612658,-142016,-2.3669333333333333,95.89827931554694
1656909225,109000,2569925,102844000,177203,2217,0,92,269233802,226323054,530303073,3821,6,70,-39,816,9999,0,0,135,11,0,2022-07-04T07:33:45,-140,-2.3315166666666665,56.622755681785044,40.051047413809584,150.85362093666694,-141048,-2.3508,96.44178701080054
1656909226,127000,2570943,102845000,181184,2217,0,92,269233808,226323125,530303034,4719,6,70,-39,968,9999,0,0,164,11,0,2022-07-04T07:33:46,-139,-2.3145499999999997,56.62274998452265,40.051055638265424,150.80455559957625,-140030,-2.333833333333333,96.9506793545794
1656909227,145000,2571962,102846000,185166,2217,0,92,269233814,226323195,530302995,5964,6,70,-39,1099,9999,0,0,193,11,0,2022-07-04T07:33:47,-138,-2.2975833333333333,56.62274433551401,40.05106373802341,150.75195031863964,-139011,-2.31685,96.9986431200987
1656909228,113000,2572930,102847000,189147,2217,0,92,269233820,226323265,530302956,7495,6,70,-39,1216,9999,0,0,221,11,0,2022-07-04T07:33:48,-137,-2.28145,56.62273868650472,40.051071837779105,150.69934513806766,-138043,-2.3007166666666667,97.04686189853608
1656909229,131000,2573948,102848000,193128,2217,0,92,269233826,226323335,530302917,9261,6,70,-39,1322,9999,0,0,250,11,0,2022-07-04T07:33:49,-136,-2.264483333333333,56.622733037494825,40.05107993753252,150.646740059592,-137025,-2.28375,97.08981835066577
1656909230,151000,2574968,102849000,197110,2217,0,92,269233832,226323406,530302878,11226,6,70,-39,1421,9999,0,0,23,11,0,2022-07-04T07:33:50,-135,-2.2474833333333333,56.6227273402299,40.05108816197905,150.59767513089946,-136005,-2.26675,96.70498319273656
1656909231,119000,2575936,102850000,201091,2217,0,92,269233838,226323476,530302840,13366,6,70,-39,1513,9999,0,0,51,11,0,2022-07-04T07:33:51,-134,-2.23135,56.62272174062345,40.05109626172786,150.55342091367504,-135037,-2.2506166666666667,96.61656536805002
1656909232,137000,2576954,102851000,205072,2217,0,92,269233844,226323546,530302801,15662,6,70,-39,1600,9999,0,0,80,11,0,2022-07-04T07:33:52,-133,-2.214383333333333,56.622716091611665,40.05110436147437,150.5008161369707,-134019,-2.23365,96.69792766571045
1656909233,155000,2577971,102852000,209054,2217,0,92,269233850,226323617,530302762,18102,6,70,-39,1683,9999,0,0,109,11,0,2022-07-04T07:33:53,-132,-2.197416666666667,56.622710394344864,40.05111258591392,150.45175151429083,-133002,-2.2167000000000003,96.90067057871771
1656909234,122000,2578939,102853000,213035,2217,0,92,269233856,226323687,530302723,20675,0,0,0,1761,9999,0,0,137,11,0,2022-07-04T07:33:54,-131,-2.1813,56.62270474533183,40.05112068565584,150.39914693832594,-132034,-2.2005666666666666,97.72789611816408
1656909235,244000,2580060,102854000,217258,2217,3,93,269234485,226324119,530300591,9685,114,-157,-5,308,214,0,4,168,11,0,2022-07-04T07:33:55,-130,-2.1626,56.62254246153463,40.05110862132173,136.77373732030856,-130913,-2.1818833333333334,97.7110918160372
1656909236,159000,2580975,102855000,221274,2217,3,93,269234421,226324017,530300785,8384,-57,-16,29,314,214,0,4,195,11,0,2022-07-04T07:33:56,-129,-2.1473500000000003,56.62256064187313,40.051102610985886,137.76315529297622,-129998,-2.166633333333333,97.60827710305733
1656909237,128000,2581944,102856000,225289,2217,3,93,269234502,226323889,530301200,7043,143,-111,81,214,214,0,4,223,11,0,2022-07-04T07:33:57,-128,-2.1312,56.62258267183532,40.051078159490814,141.1166568539434,-129029,-2.1504833333333333,97.64474473052123
1656909238,146000,2582963,102857000,229307,2217,0,92,269234645,226323778,530301281,7110,143,-111,81,593,9999,0,0,252,11,0,2022-07-04T07:33:58,-127,-2.1142333333333334,56.622583821193814,40.051049328899204,142.00232166823025,-128010,-2.1334999999999997,97.68305643821807
1656909239,116000,2583932,102858000,233324,2217,0,92,269234787,226323666,530301362,7376,143,-111,81,810,9999,0,0,24,11,0,2022-07-04T07:33:59,-126,-2.0980666666666665,56.62258507620298,40.05102047843969,142.88023566219704,-127041,-2.11735,96.89619304869767
1656909240,135000,2584951,102859000,237342,2217,0,92,269234930,226323555,530301443,7962,143,-111,81,981,9999,0,0,53,11,0,2022-07-04T07:34:00,-125,-2.0810833333333334,56.62258622554746,40.05099164786045,143.76590146214713,-126022,-2.100366666666667,96.59381866455078
1656909241,153000,2585969,102860000,241359,2217,0,92,269235072,226323444,530301524,8934,143,-111,81,1125,9999,0,0,82,11,0,2022-07-04T07:34:01,-124,-2.0641166666666666,56.62258743228833,40.05096292210836,144.6473564968836,-125004,-2.0834,97.26696752452706
1656909242,120000,2586937,102861000,245377,2217,0,92,269235215,226323333,530301605,10296,143,-111,81,1254,9999,0,0,110,11,0,2022-07-04T07:34:02,-123,-2.048,56.62258858161883,40.050934091541514,145.53302327964204,-124036,-2.067266666666667,97.92163249991225
1656909243,138000,2587955,102862000,249395,2217,0,92,269235357,226323222,530301686,12012,143,-111,81,1370,9999,0,0,139,11,0,2022-07-04T07:34:03,-122,-2.0310333333333332,56.62258978834577,40.05090536580168,146.4144792948924,-123018,-2.0503,98.22091268389336
1656909244,156000,2588972,102863000,253412,2217,0,92,269235500,226323111,530301767,14035,143,-111,81,1477,9999,0,0,168,11,0,2022-07-04T07:34:04,-121,-2.0140666666666664,56.622590937662295,40.05087653524723,147.30014706129964,-122001,-2.03335,98.1409321156663
1656909249,142000,2593958,102868000,273752,2217,0,92,269234444,226324410,530303098,8685,-47,114,77,860,9999,0,0,55,11,0,2022-07-04T07:34:09,-116,-1.9309666666666667,56.62265463108559,40.05114920523001,158.56631247713594,-117015,-1.95025,96.84583282470703
1656909250,109000,2594926,102869000,277810,2217,0,92,269234397,226324524,530303175,9625,-47,114,77,983,9999,0,0,83,11,0,2022-07-04T07:34:10,-115,-1.9148500000000002,56.62265563219933,40.0511683470477,159.41495165897567,-116047,-1.9341166666666667,97.02057041909266
1656909251,127000,2595943,102870000,281868,2217,0,92,269234350,226324638,530303252,10900,-47,114,77,1092,9999,0,0,112,11,0,2022-07-04T07:34:11,-114,-1.8978833333333334,56.622656633309866,40.051187488861316,160.26359105912076,-115030,-1.9171666666666667,97.3126125650204
1656909252,145000,2596961,102871000,285926,2217,0,92,269234302,226324752,530303329,12491,-47,114,77,1192,9999,0,0,141,11,0,2022-07-04T07:34:12,-113,-1.8809166666666668,56.62265769182027,40.05120673549225,161.1080194429412,-114012,-1.9002000000000001,97.6623322714731
1656909253,162000,2597979,102872000,289984,2217,0,92,269234255,226324866,530303406,14365,-47,114,77,1284,9999,0,0,170,11,0,2022-07-04T07:34:13,-112,-1.8639666666666665,56.62265869292436,40.05122587729778,161.95665927944012,-112994,-1.8832333333333333,98.05262286420172
1656909254,130000,2598946,102873000,294117,2217,3,93,269234297,226323466,530302717,7326,22,29,-115,296,214,0,4,198,11,0,2022-07-04T07:34:14,-111,-1.8478333333333334,56.62268979826126,40.05104690175893,151.4238478018434,-112027,-1.8671166666666668,98.01261076269199
1656909255,148000,2599965,102874000,298191,2217,3,93,269234363,226323220,530302732,6278,60,70,-115,405,214,0,4,227,11,0,2022-07-04T07:34:15,-110,-1.8308666666666666,56.62269862127267,40.05100930848741,150.95619784095905,-111008,-1.8501333333333332,97.33273797368273
1656909256,167000,2600983,102875000,302271,2217,3,93,269234305,226323066,530302738,5402,39,31,-42,350,214,0,4,0,11,0,2022-07-04T07:34:16,-109,-1.8138833333333333,56.62270967825949,40.05099618501329,150.2168827165049,-109990,-1.8331666666666666,97.09785461425781
1656909257,185000,2602001,102876000,306361,2217,3,93,269234284,226322822,530302751,4563,29,10,6,242,214,0,4,29,11,0,2022-07-04T07:34:17,-108,-1.7969166666666667,56.62272330003977,40.050967960536234,149.37323478803606,-108972,-1.8161999999999998,97.14361585762171
1656909258,153000,2602970,102877000,310453,2217,3,93,269234187,226322753,530302739,4043,13,-2,15,197,214,0,4,57,11,0,2022-07-04T07:34:18,-107,-1.7807833333333332,56.62273160486328,40.05096952419706,148.62027351962328,-108003,-1.80005,97.4015953098609
1656909259,172000,2603988,102878000,314545,2217,3,93,269234143,226322747,530302801,3699,20,42,23,144,214,0,4,86,11,0,2022-07-04T07:34:19,-106,-1.7638,56.622737483231944,40.05097338815936,148.931479706954,-106985,-1.7830833333333334,97.87668202243347
1656909260,194000,2605010,102879000,318638,2217,3,93,269234185,226322765,530302880,3489,77,10,20,226,214,0,4,115,11,0,2022-07-04T07:34:20,-105,-1.7467666666666666,56.62273810668037,40.050971230187756,149.83177489746646,-105963,-1.76605,98.2317862119323
1656909261,158000,2605975,102880000,322738,2217,3,93,269234218,226322724,530303026,3311,63,77,74,192,214,0,4,143,11,0,2022-07-04T07:34:21,-104,-1.7307,56.622745403875065,40.05096265856293,151.0448010316378,-104998,-1.7499666666666667,98.43842180603112
1656909262,177000,2606993,102881000,326847,2217,3,93,269234271,226322750,530303067,3169,150,168,13,217,214,0,4,172,11,0,2022-07-04T07:34:22,-103,-1.7137166666666666,56.62274313247295,40.05096034512476,151.70241500339347,-103980,-1.733,98.39264948158235
1656909263,199000,2608015,102882000,330957,2217,3,93,269234338,226322779,530303236,3052,47,55,159,172,214,0,4,201,11,0,2022-07-04T07:34:23,-102,-1.6966833333333333,56.6227462364561,40.0509569382774,153.4984913592591,-102958,-1.7159666666666666,98.27349432822197
1656909264,163000,2608979,102883000,335074,2217,3,93,269234250,226322710,530303190,2905,66,-18,81,177,214,0,4,228,11,0,2022-07-04T07:34:24,-101,-1.6806166666666666,56.622752344888276,40.050957558543274,152.4995090350874,-101994,-1.6999,97.94695490919133
1656909265,181000,2609998,102884000,339192,2217,3,93,269234187,226322663,530303151,2779,26,-2,41,162,214,0,4,0,11,0,2022-07-04T07:34:25,-100,-1.66365,56.62275630247463,40.05095830158382,151.74214324436696,-100975,-1.6829166666666666,97.56773852550252
1656909266,150000,2610966,102885000,343311,2217,3,93,269234126,226322616,530303112,2665,-20,-14,23,165,214,0,4,27,11,0,2022-07-04T07:34:26,-99,-1.6475,56.62276014525499,40.05095883498214,150.99319996506597,-100007,-1.6667833333333335,97.74291679015847
1656909267,168000,2611984,102886000,347428,2217,3,93,269234098,226322574,530303048,2606,-3,-65,-4,237,214,0,4,55,11,0,2022-07-04T07:34:27,-98,-1.6305333333333332,56.622760617334286,40.050956532756445,150.19216117296506,-98989,-1.6498166666666667,98.20620533020927
1656909268,186000,2613002,102887000,351537,2217,3,93,269234089,226322627,530302960,2554,-21,29,-46,220,214,0,4,83,11,0,2022-07-04T07:34:28,-97,-1.6135666666666666,56.62275422887805,40.0509640850234,149.60702351812208,-97971,-1.6328500000000001,98.56041711103879
1656909269,154000,2613971,102888000,355644,2217,3,93,269234181,226322729,530303010,2515,98,109,-19,231,214,0,4,110,11,0,2022-07-04T07:34:29,-96,-1.5974333333333335,56.6227464960563,40.050967160428186,150.77307470626477,-97002,-1.6167,98.83183811048747
1656909270,173000,2614989,102889000,359757,2217,3,93,269234228,226322723,530302966,2478,60,30,22,174,214,0,4,138,11,0,2022-07-04T07:34:30,-95,-1.58045,56.62274191381477,40.0509614856547,150.5823336178891,-95984,-1.5997333333333332,98.52859112975086
1656909271,195000,2616011,102890000,363870,2217,3,93,269234233,226322774,530302906,2435,-8,65,9,181,214,0,4,166,11,0,2022-07-04T07:34:31,-94,-1.5634166666666667,56.62273620154849,40.05096732102816,150.28289206663823,-94962,-1.5827,98.12801641961039
1656909272,159000,2616975,102891000,367982,2217,0,92,269234224,226322839,530302915,2588,-8,65,9,511,9999,0,0,193,11,0,2022-07-04T07:34:32,-93,-1.54735,56.62273402629287,40.050976369637006,150.5502494671544,-93998,-1.5666333333333333,97.35487638828
1656909273,127000,2617943,102892000,372094,2217,0,92,269234216,226322904,530302925,3083,-8,65,9,699,9999,0,0,220,11,0,2022-07-04T07:34:33,-92,-1.5312166666666667,56.62273184303801,40.050985313422785,150.83016882748498,-93030,-1.5505,97.41766615799794
1656909274,145000,2618961,102893000,376206,2217,0,92,269234208,226322970,530302934,3996,-8,65,9,847,9999,0,0,248,11,0,2022-07-04T07:34:34,-91,-1.51425,56.622729562123745,40.050994381902335,151.10527762311838,-92012,-1.5335333333333334,97.49123246324328
1656909275,162000,2619979,102894000,380318,2217,0,92,269234200,226323035,530302944,5269,-8,65,9,972,9999,0,0,20,11,0,2022-07-04T07:34:35,-90,-1.4972999999999999,56.622727378867985,40.05100332568446,151.38519709746052,-90994,-1.5165666666666666,97.77500525528103
1656909276,118000,2620934,102895000,384430,2217,0,92,269234191,226323100,530302953,6824,-8,65,9,1084,9999,0,0,44,11,0,2022-07-04T07:34:36,-89,-1.4813666666666667,56.62272520361048,40.05101237428605,151.6525547264383,-90039,-1.50065,98.1473860892483
1656909277,136000,2621952,102896000,388507,2217,3,93,269234584,226323170,530303024,4115,137,-12,32,260,214,0,4,73,11,0,2022-07-04T07:34:37,-88,-1.4644000000000001,56.62270277401744,40.050979908234446,154.14827291538577,-89021,-1.4836833333333332,96.95440318456116
1656909278,154000,2622970,102897000,392607,2217,3,93,269234580,226323167,530302970,3709,79,9,40,267,214,0,4,102,11,0,2022-07-04T07:34:38,-87,-1.4474333333333333,56.622700480539834,40.05097995343256,153.66987221328242,-88003,-1.4667166666666667,96.07320108747251
1656909279,122000,2623938,102898000,396718,2217,3,93,269234460,226323112,530302846,3471,60,-75,41,257,214,0,4,130,11,0,2022-07-04T07:34:39,-86,-1.4313,56.622703896745975,40.05098567371935,151.934338720938,-87035,-1.4505833333333333,97.65078645698458
1656909280,194000,2625010,102899000,400829,2217,3,93,269234339,226323104,530302768,3259,-57,18,14,192,214,0,4,160,11,0,2022-07-04T07:34:40,-85,-1.4134333333333333,56.622707375022394,40.05099735952097,150.74510645929539,-85963,-1.4327166666666666,98.16353435066469
1656909281,159000,2625975,102900000,404934,2217,3,93,269234395,226323109,530302786,2994,26,-12,8,218,214,0,4,188,11,0,2022-07-04T07:34:41,-84,-1.3973499999999999,56.62270480844606,40.05099211301027,151.14894817778972,-84998,-1.4166333333333334,97.51788330078125
1656909282,177000,2626993,102901000,409044,2217,3,93,269234360,226323054,530302731,2812,11,4,4,176,214,0,4,217,11,0,2022-07-04T07:34:42,-83,-1.3803833333333333,56.62270675429108,40.05098892349925,150.34756594420412,-83980,-1.3996666666666668,97.51788330078125
1656909283,145000,2627962,102902000,413157,2217,3,93,269234303,226323008,530302665,2669,-14,0,-2,175,214,0,4,245,11,0,2022-07-04T07:34:43,-82,-1.36425,56.6227089852709,40.050989162314266,149.39353950389562,-83011,-1.3835166666666665,98.02350144378907
1656909284,164000,2628980,102903000,417264,2217,3,93,269234348,226323034,530302663,2612,39,6,-17,214,214,0,4,18,11,0,2022-07-04T07:34:44,-81,-1.3472666666666666,56.622705048696425,40.050987687443154,149.65838529000249,-81993,-1.36655,98.4228663356989
1656909290,171000,2634987,102909000,441916,2217,3,93,269234261,226322840,530302611,2249,29,-10,-9,110,213,0,4,190,11,0,2022-07-04T07:34:50,-75,-1.24715,56.622716835081384,40.05097261594625,148.17100442158042,-75986,-1.2664333333333333,97.26206448840692
1656909291,193000,2636009,102910000,446024,2217,3,93,269234240,226322820,530302578,2172,10,-4,5,125,213,0,4,219,11,0,2022-07-04T07:34:51,-74,-1.2301166666666667,56.62271737528361,40.05097232327965,147.73619567045722,-74964,-1.2494,97.1818618774414
1656909292,157000,2636973,102911000,450130,2217,3,93,269234314,226322804,530302642,2145,115,-25,21,171,213,0,4,247,11,0,2022-07-04T07:34:52,-73,-1.21405,56.62271706139975,40.05096257137782,148.5256293199808,-74000,-1.2333333333333334,97.34717605299714
1656909293,176000,2637992,102912000,454235,2217,3,93,269234352,226322807,530302618,2138,30,19,3,190,213,0,4,20,11,0,2022-07-04T07:34:53,-72,-1.1970666666666667,56.6227135495926,40.050958962258775,148.49586087965184,-72981,-1.2163499999999998,97.61936080803237
1656909294,197000,2639013,102913000,458342,2217,3,93,269234372,226322827,530302630,2112,71,1,26,171,213,0,4,49,11,0,2022-07-04T07:34:54,-71,-1.18005,56.62271202929491,40.05095935974761,148.75109452396038,-71960,-1.1993333333333331,97.96182930696095
1656909298,165000,2642981,102917000,474848,2217,3,93,269234325,226322878,530302677,2060,-9,-10,19,152,213,0,4,163,11,0,2022-07-04T07:34:58,-67,-1.1139166666666667,56.622714588310195,40.050970645821124,149.12618919745967,-67992,-1.1332,97.53105139187711
1656909299,183000,2643999,102918000,478971,2217,3,93,269234307,226322864,530302684,2032,20,-2,6,168,213,0,4,192,11,0,2022-07-04T07:34:59,-66,-1.0969499999999999,56.62271664296502,40.0509707868645,149.0592808469463,-66974,-1.1162333333333334,97.45383297750159
1656909300,152000,2644967,102919000,483096,2217,3,93,269234286,226322918,530302679,2013,25,103,-22,137,213,0,4,220,11,0,2022-07-04T07:35:00,-65,-1.0808,56.62271499568175,40.05097972167336,149.12025371486033,-66006,-1.1001,98.04834457080248
1656909301,170000,2645986,102920000,487220,2217,3,93,269234247,226322938,530302657,2001,-18,5,6,158,213,0,4,249,11,0,2022-07-04T07:35:01,-64,-1.0638333333333334,56.622715182425374,40.050986303614025,148.84310156803153,-64987,-1.0831166666666665,98.70971652448898
1656909302,188000,2647004,102921000,491341,2217,3,93,269234217,226322933,530302658,1987,-15,4,-8,168,213,0,4,22,11,0,2022-07-04T07:35:02,-63,-1.0468666666666666,56.62271719520427,40.05098882477404,148.70741473304489,-63969,-1.06615,98.32323624845036
1656909303,156000,2647972,102922000,495462,2217,3,93,269234170,226322865,530302779,1983,-48,-78,118,163,213,0,4,50,11,0,2022-07-04T07:35:03,-62,-1.0307333333333333,56.622729152428015,40.05098527207243,149.2791934805741,-63001,-1.0500166666666666,98.09125463458687
1656909304,175000,2648990,102923000,499586,2217,3,93,269234171,226322884,530302781,1987,94,100,-20,170,213,0,4,79,11,0,2022-07-04T07:35:04,-61,-1.0137500000000002,56.62272827700216,40.05098753646807,149.3673668403894,-61983,-1.03305,98.05346230701454
1656909305,197000,2650012,102924001,-496284,2217,3,93,269234043,226322860,530302670,1981,-47,-38,20,172,213,0,4,108,11,0,2022-07-04T07:35:05,-60,-0.9967166666666666,56.62273129882227,40.0509979609016,147.8164435498483,-60961,-1.0160166666666666,97.94268720156549
1656909307,161000,2650977,102925000,-492164,2217,3,93,269234011,226322847,530302661,1956,-27,-13,-5,144,213,0,4,136,11,0,2022-07-04T07:35:07,-58,-0.9639833333333333,56.622733318396065,40.050999694141474,147.560507356545,-59996,-0.9999333333333333,97.58898993481307
1656909307,180000,2651996,102926000,-488043,2217,3,93,269233982,226322832,530302640,1914,-9,-3,-9,136,213,0,4,165,11,0,2022-07-04T07:35:07,-58,-0.9636666666666667,56.622734669411855,40.05100086352623,147.20991685997208,-58977,-0.98295,97.59028340158818
1656909308,150000,2652966,102927000,-483921,2217,3,93,269233943,226322827,530302597,1874,-1,4,-6,149,213,0,4,193,11,0,2022-07-04T07:35:08,-57,-0.9475,56.622735025015054,40.05100432808175,146.66889982519115,-58007,-0.9667833333333333,98.15090519855717
1656909309,168000,2653984,102928000,-479798,2217,3,93,269233983,226322831,530302569,1878,77,-11,-26,162,213,0,4,222,11,0,2022-07-04T07:35:09,-56,-0.9305333333333333,56.62273115252808,40.05100063400919,146.61769105035185,-56989,-0.9498166666666666,98.42609065218232
1656909310,187000,2655002,102929000,-475679,2217,3,93,269233957,226322869,530302531,1882,-75,24,20,161,213,0,4,251,11,0,2022-07-04T07:35:10,-55,-0.9135500000000001,56.622728933972866,40.051008097799944,146.3253952959071,-55971,-0.93285,97.88999515687671
1656909311,155000,2655971,102930000,-471561,2217,3,93,269233876,226322901,530302493,1895,-63,21,-7,199,213,0,4,23,11,0,2022-07-04T07:35:11,-54,-0.8974166666666666,56.62273016213179,40.05102057859444,145.78024115368783,-55002,-0.9167000000000001,98.0364956678314
1656909312,173000,2656989,102931000,-467440,2217,3,93,269233882,226322910,530302464,1907,73,36,-48,164,213,0,4,52,11,0,2022-07-04T07:35:12,-53,-0.88045,56.62272795068478,40.05102107192662,145.59519979852587,-53984,-0.8997333333333334,98.24316409199983
1656909313,195000,2658011,102932000,-463314,2217,3,93,269233886,226322983,530302446,1917,-14,111,-15,186,213,0,4,81,11,0,2022-07-04T07:35:13,-52,-0.8634166666666666,56.62272330921674,40.05102975542102,145.7201561360051,-52962,-0.8827,97.98282432429586
1656909314,160000,2658976,102933000,-459192,2217,3,93,269233883,226323018,530302439,1893,-7,-4,6,138,213,0,4,109,11,0,2022-07-04T07:35:14,-51,-0.8473333333333334,56.62272144669067,40.05103443423108,145.77296939444082,-51997,-0.8666166666666667,97.72099022290385
1656909315,178000,2659994,102934000,-455074,2217,3,93,269233895,226323020,530302438,1865,-3,-7,2,133,213,0,4,138,11,0,2022-07-04T07:35:15,-50,-0.8303666666666667,56.62272061193624,40.05103342576509,145.82223369741504,-50979,-0.84965,97.55144000590995
1656909316,147000,2660962,102935000,-450955,2217,3,93,269233922,226323018,530302453,1850,35,-2,10,135,213,0,4,166,11,0,2022-07-04T07:35:16,-49,-0.8142166666666667,56.62271989962393,40.05103034619557,146.05411698157675,-50011,-0.8335166666666667,97.3990979239778
1656909317,165000,2661981,102936000,-446833,2217,3,93,269233913,226323033,530302428,1849,-2,41,4,188,213,0,4,195,11,0,2022-07-04T07:35:17,-48,-0.79725,56.62271845732057,40.05103316002201,145.8605499985457,-48992,-0.8165333333333333,97.9189659141842
1656909323,172000,2667987,102942000,-422095,2217,3,93,269233835,226322853,530302412,1936,-46,-18,-4,168,213,0,4,107,11,0,2022-07-04T07:35:23,-42,-0.6971333333333334,56.622730830099364,40.05101889088191,144.76125462578378,-42986,-0.7164333333333333,97.61147777505226
1656909324,194000,2669009,102943000,-417977,2217,3,93,269233777,226322837,530302386,1926,-73,-7,-14,168,213,0,4,135,11,0,2022-07-04T07:35:24,-41,-0.6800999999999999,56.622733647046005,40.051022975395504,144.24324486071927,-41964,-0.6994,97.52547552456667
1656909325,158000,2669974,102944000,-413859,2217,3,93,269233803,226322843,530302469,1952,-2,4,37,224,213,0,4,162,11,0,2022-07-04T07:35:25,-40,-0.6640333333333334,56.62273596562272,40.05102099821158,145.0670822906183,-40999,-0.6833166666666667,98.16237802798585
1656909326,176000,2670992,102945000,-409734,2217,3,93,269233739,226322831,530302489,1980,-37,-10,54,229,213,0,4,190,11,0,2022-07-04T07:35:26,-39,-0.6470666666666667,56.62274120658983,40.051026210437456,144.92209579491043,-39981,-0.66635,98.75872186709076
1656909327,145000,2671960,102946000,-405608,2217,3,93,269233716,226322838,530302457,2001,-23,15,-3,170,213,0,4,217,11,0,2022-07-04T07:35:27,-38,-0.6309166666666666,56.622740608137185,40.051029494201465,144.5827964295081,-39013,-0.6502166666666667,98.66123903609272
1656909328,163000,2672979,102947000,-401484,2217,3,93,269233695,226322816,530302541,2031,-73,-47,81,247,213,0,4,245,11,0,2022-07-04T07:35:28,-37,-0.6139500000000001,56.62274702520211,40.05102895214782,145.11793519899072,-37994,-0.6332333333333333,98.46841468811036
1656909329,182000,2673997,102948000,-397359,2217,3,93,269233795,226322855,530302619,2049,80,54,22,188,213,0,4,17,11,0,2022-07-04T07:35:29,-36,-0.5969666666666666,56.622743256504826,40.051023333131255,146.32847231826412,-36976,-0.6162666666666666,98.18465080261231
1656909330,150000,2674966,102949000,-393232,2217,3,93,269233940,226322912,530302649,2047,119,28,28,170,213,0,4,44,11,0,2022-07-04T07:35:30,-35,-0.5808333333333333,56.62273366465052,40.05101524167606,147.39140420283917,-36007,-0.6001166666666666,97.87131683063565
1656909331,168000,2675984,102950000,-389107,2217,3,93,269233985,226322950,530302597,2025,8,1,27,158,213,0,4,73,11,0,2022-07-04T07:35:31,-34,-0.5638666666666666,56.62272667878614,40.05101526314706,147.2811972225197,-34989,-0.58315,97.66479246736152
1656909332,187000,2677002,102951000,-384987,2217,3,93,269233991,226322962,530302577,2005,-17,-1,8,155,213,0,4,102,11,0,2022-07-04T07:35:32,-33,-0.5468833333333334,56.62272476721901,40.05101613056605,147.1819319641831,-33971,-0.5661833333333333,97.88617775759637
1656909333,209000,2678024,102952000,-380867,2217,3,93,269233989,226322968,530302565,1974,3,1,3,147,213,0,4,131,11,0,2022-07-04T07:35:33,-32,-0.52985,56.622723999643064,40.051017088382416,147.09454181815525,-32949,-0.5491499999999999,94.58165383497756
1656909334,161000,2678977,102953000,-376745,2217,3,93,269233981,226323014,530302553,1992,-12,72,1,202,213,0,4,155,11,0,2022-07-04T07:35:34,-31,-0.5139833333333333,56.62272164631338,40.051023662950605,147.12348603085937,-31996,-0.5332666666666667,94.91772688774213
1656909335,179000,2679995,102954000,-372624,2217,3,93,269234005,226323051,530302548,2027,8,23,9,204,213,0,4,184,11,0,2022-07-04T07:35:35,-30,-0.4970166666666667,56.6227182361968,40.051025760973495,147.3137841685385,-30978,-0.5163,97.06544230561278
1656909336,148000,2680963,102955000,-368507,2217,3,93,269234065,226323081,530302466,2075,65,-5,-57,213,213,0,4,212,11,0,2022-07-04T07:35:36,-29,-0.48086666666666666,56.6227092931736,40.051023212558036,146.98790584492266,-30010,-0.5001666666666666,98.25413418902733
1656909337,166000,2681982,102956000,-364388,2217,3,93,269234094,226323066,530302420,2097,27,27,-36,237,213,0,4,241,11,0,2022-07-04T07:35:37,-28,-0.4639,56.622706079671694,40.051018302305806,146.67280080891894,-28991,-0.48318333333333335,98.40403331652949
1656909338,185000,2683000,102957000,-360265,2217,3,93,269234160,226323073,530302392,2124,106,39,-44,239,213,0,4,14,11,0,2022-07-04T07:35:38,-27,-0.4469166666666667,56.62270056993325,40.051012256967155,146.7417046678118,-27973,-0.46621666666666667,98.33476627255448
1656909339,153000,2683968,102958000,-356142,2217,3,93,269234246,226323058,530302500,2126,27,-29,68,208,213,0,4,42,11,0,2022-07-04T07:35:39,-26,-0.43078333333333335,56.622701692768295,40.051001371903155,147.95264205996025,-27005,-0.45008333333333334,97.44910935465495
1656909340,171000,2684987,102959000,-352023,2217,3,93,269234278,226323045,530302532,2122,8,-5,31,179,213,0,4,71,11,0,2022-07-04T07:35:40,-25,-0.41381666666666667,56.62270206411716,40.05099639658075,148.30860235577097,-25986,-0.4331,97.67716107177735
1656909341,193000,2686009,102960000,-347907,2217,3,93,269234303,226323042,530302526,2102,30,1,13,176,213,0,4,100,11,0,2022-07-04T07:35:41,-24,-0.3967833333333333,56.622700477366394,40.05099340196292,148.3531593617702,-24964,-0.41606666666666664,98.23317121300676
1656909342,158000,2686974,102961000,-343789,2217,3,93,269234316,226323101,530302514,2090,37,93,0,176,213,0,4,128,11,0,2022-07-04T07:35:42,-23,-0.3807,56.62269629126106,40.05099939632286,148.5165603104613,-23999,-0.3999833333333333,98.49352099281352
1656909343,176000,2687992,102962000,-339669,2217,3,93,269234269,226323133,530302471,2075,-13,19,15,126,213,0,4,157,11,0,2022-07-04T07:35:43,-22,-0.36373333333333335,56.62269532067841,40.05100831317801,148.07283501098553,-22981,-0.38301666666666667,98.58250636706137
1656909344,145000,2688960,102963000,-335552,2217,3,93,269234255,226323131,530302467,2061,9,-1,0,159,213,0,4,185,11,0,2022-07-04T07:35:44,-21,-0.34758333333333336,56.62269602321559,40.05100953128476,147.97339487277867,-22013,-0.36688333333333334,98.46601856656875
1656909345,163000,2689979,102964000,-331441,2217,3,93,269234296,226323223,530302492,2047,16,133,-29,156,213,0,4,214,11,0,2022-07-04T07:35:45,-20,-0.33061666666666667,56.62269046539795,40.05101670559717,148.6805066546427,-20994,-0.3499,98.24226702136684
1656909346,182000,2690997,102965000,-327326,2217,3,93,269234257,226323243,530302475,2040,47,12,18,186,213,0,4,243,11,0,2022-07-04T07:35:46,-19,-0.3136333333333334,56.622690899162365,40.051023287535806,148.44510793233854,-19976,-0.3329333333333333,97.9454606879572
1656909347,150000,2691965,102966000,-323209,2217,3,93,269234275,226323240,530302493,2037,53,6,20,217,213,0,4,15,11,0,2022-07-04T07:35:47,-18,-0.29750000000000004,56.622690899950165,40.05102102666649,148.66060201074788,-19008,-0.31679999999999997,97.71426473707203
1656909348,168000,2692984,102967000,-319095,2217,3,93,269234256,226323249,530302494,2025,-19,-5,17,153,213,0,4,44,11,0,2022-07-04T07:35:48,-17,-0.28053333333333336,56.62269160573013,40.0510241405298,148.62079948105966,-17989,-0.2998166666666667,97.92216620793026
1656909349,187000,2694002,102968000,-314986,2217,3,93,269234211,226323234,530302485,2007,-34,-4,2,161,213,0,4,73,11,0,2022-07-04T07:35:49,-16,-0.26355,56.62269446805429,40.05102698705601,148.30303690619172,-16971,-0.28285,97.57528593795874
1656909350,155000,2694971,102969000,-310878,2217,3,93,269234268,226323216,530302549,2017,68,-18,30,188,213,0,4,101,11,0,2022-07-04T07:35:50,-15,-0.24741666666666667,56.62269522654366,40.051018767724386,149.013799027787,-16002,-0.2667,98.03853592952017
1656909351,174000,2695989,102970000,-306768,2217,3,93,269234317,226323288,530302562,2042,51,122,1,217,213,0,4,130,11,0,2022-07-04T07:35:51,-14,-0.23043333333333335,56.622689581728984,40.051022609554565,149.58359194244457,-14984,-0.24973333333333333,98.47734606599154
1656909352,196000,2697011,102971000,-302656,2217,3,93,269234269,226323317,530302493,2084,-16,14,0,218,213,0,4,159,11,0,2022-07-04T07:35:52,-13,-0.2134,56.62268752878707,40.051031257142675,148.9079182845043,-13962,-0.2327,98.57143420075717
1656909353,160000,2697976,102972000,-298544,2217,3,93,269234230,226323232,530302426,2111,28,-81,-22,184,213,0,4,187,11,0,2022-07-04T07:35:53,-12,-0.19733333333333333,56.62269055901804,40.051024746060484,147.88328159139712,-12997,-0.21661666666666665,98.40578944517834
1656909354,179000,2698994,102973000,-294432,2217,3,93,269234232,226323120,530302478,2145,-4,-85,41,276,213,0,4,216,11,0,2022-07-04T07:35:54,-11,-0.18034999999999998,56.622698417743564,40.05101057052354,147.92945300977595,-11979,-0.19965,98.02439200146364
1656909355,147000,2699963,102974000,-290316,2217,3,93,269234209,226323091,530302450,2208,8,26,-9,299,213,0,4,244,11,0,2022-07-04T07:35:55,-10,-0.16421666666666665,56.62269975406418,40.051009365243054,147.49611462662892,-11010,-0.1835,97.79447789363005
1656909356,166000,2700981,102975000,-286199,2217,3,93,269234182,226323081,530302461,2247,-15,-1,21,229,213,0,4,17,11,0,2022-07-04T07:35:56,-9,-0.14723333333333333,56.622702329951636,40.051010948462725,147.4388678549223,-9992,-0.16653333333333334,97.67953760722271
1656909357,184000,2701999,102976000,-282086,2217,3,93,269234264,226323089,530302488,2249,21,-6,9,214,213,0,4,46,11,0,2022-07-04T07:35:57,-8,-0.13026666666666667,56.62269857076619,40.05100335068179,148.0379779540499,-8974,-0.14956666666666668,97.60980128778881
1656909358,152000,2702968,102977000,-277978,2217,3,93,269234300,226323099,530302544,2256,-25,12,40,157,213,0,4,74,11,0,2022-07-04T07:35:58,-7,-0.11413333333333334,56.62269878836649,40.05100082407176,148.69262007684603,-8005,-0.13341666666666668,98.40746594003888
1656909359,171000,2703986,102978000,-273864,2217,3,93,269234271,226323043,530302537,2265,62,-70,25,248,213,0,4,103,11,0,2022-07-04T07:35:59,-6,-0.09715,56.62270280947335,40.050996880938456,148.3137968569711,-6987,-0.11645,99.24715631260376
1656909365,178000,2709993,102984000,-249164,2217,3,93,269234586,226323003,530302828,2168,30,78,90,129,213,0,4,19,11,0,2022-07-04T07:36:05,0,0.0029666666666666665,56.62270103434731,40.05095887444401,151.9287790187316,-980,-0.01633333333333333,98.46645864935981
1656909366,146000,2710961,102985000,-245063,2217,3,93,269234748,226323137,530303072,2114,35,150,138,120,213,0,4,47,11,0,2022-07-04T07:36:06,1,0.0191,56.62269732367938,40.05095860262617,155.12292738274667,-12,-0.0002,100.49750623361273
1656909367,164000,2711980,102986000,-240967,2217,3,93,269234898,226323260,530303316,2068,157,121,196,152,213,0,4,76,11,0,2022-07-04T07:36:07,2,0.03606666666666667,56.62269483265145,40.050958217011186,158.22760033722787,1007,0.01678333333333333,103.65922552023508
1656909368,183000,2712998,102987000,-236873,2217,3,93,269235226,226323335,530303879,2033,266,16,440,159,213,0,4,105,11,0,2022-07-04T07:36:08,3,0.05305,56.62270020011406,40.050933187902864,164.57581342037636,2025,0.033749999999999995,107.80889610130765
1656909369,151000,2713967,102988000,-232784,2217,3,93,269235508,226323432,530304316,2012,260,115,403,162,213,0,4,133,11,0,2022-07-04T07:36:09,4,0.06918333333333333,56.62270092154665,40.050915723885865,169.75600727514743,2994,0.04990000000000001,111.83015372262365
1656909375,164000,2719979,102994000,-208478,2217,3,93,269238094,226324634,530307575,2120,532,91,450,178,213,0,4,48,11,0,2022-07-04T07:36:15,10,0.1694,56.62265548503472,40.05079454215385,212.11622780000752,9006,0.1501,149.72924547575457
1656909376,184000,2720999,102995000,-204469,2217,3,93,269238709,226324889,530307873,2160,632,226,308,182,213,0,4,76,11,0,2022-07-04T07:36:16,11,0.18639999999999998,56.62262260004872,40.05076187523525,218.0973587824646,10026,0.1671,156.88581197257287
1656909377,155000,2721970,102996000,-200459,2217,3,93,269239366,226325178,530308122,2181,714,321,244,187,213,0,4,103,11,0,2022-07-04T07:36:17,12,0.2025833333333333,56.6225832427678,40.05072904563379,223.96654544422228,10997,0.18328333333333333,163.69858262787733
1656909378,175000,2722990,102997000,-196445,2217,3,93,269239913,226325494,530308175,2199,588,299,192,204,213,0,4,131,11,0,2022-07-04T07:36:18,13,0.21958333333333335,56.62253921377272,40.05071111297203,227.83134986780186,12017,0.2002833333333333,170.6986541444329
1656909379,146000,2723961,102998000,-192444,2217,3,93,269240560,226325826,530308275,2215,621,273,113,215,213,0,4,158,11,0,2022-07-04T07:36:19,14,0.23576666666666668,56.62249099450363,40.05068469361103,232.56640755197316,12988,0.21646666666666667,175.8573623857182
1656909380,169000,2724984,102999000,-188454,2217,3,93,269241180,226326123,530308307,2208,590,271,51,200,213,0,4,186,11,0,2022-07-04T07:36:20,15,0.2528166666666667,56.62244265453522,40.0506567401766,236.4960205573598,14011,0.23351666666666665,179.0525290979949
1656909381,188000,2726004,103000000,-184479,2217,3,93,269241754,226326509,530308484,2196,476,369,85,173,213,0,4,214,11,0,2022-07-04T07:36:21,16,0.2698,56.622399824260555,40.05064470619202,241.75782430379857,15031,0.25051666666666667,183.19602790183208
